[
  {
    "category":"plumbers","featured":true,
    "name":"Andersen Plumbing & Heating","slug":"andersen-plumbing-and-heating",
    "phone":"(630) 277-9849","website":"https://andersenph.com/",
    "short_description":"For over three decades, Andersen Plumbing & Heating has been the go-to name for the Fox Valley area’s reliable plumbing, heating, and air conditioning services. Established in 1985, we have built a strong reputation for quality workmanship, integrity, and unmatched expertise in the industry. As your trusted local contractor, we are committed to delivering efficient solutions and exceptional customer service for every project – big or small.",
    "services":["Emergency leaks","Water heaters","Drain cleaning","Sump pumps"],
    "service_areas":["Naperville","Wheaton","Lisle"],
    "hours":"Mon–Sun Open 24 hours","image":"/static/listings/plumbers/premier.jpg","city":"Aurora"
  },
  {
    "category":"plumbers","featured":false,
    "name":"S and J Plumbing & Sewer","slug":"s-and-j-plumbing-and-sewer",
    "phone":"(224) 328-1183","website":"https://www.sandjplumbing.com/",
    "short_description":"S and J Plumbing greatly values its customers. As a leader in the plumbing industry, we strive to bring superior plumbing service by means of our employees, products, and technical skills. I would like to personally thank our current and future customers for trusting us with their health and homes as well as those of their families, friends, and neighbors. Customer satisfaction is our number one priority. If for any reason, you are not satisfied with our work we will do whatever it takes to make it right, I guarantee it! No fine print here, just a confident company with a knack for customer satisfaction.",
    "services":["Drain cleaning","Sewer camera","Toilet repair"],
    "service_areas":["Naperville","Warrenville"],
    "hours":"Mon–Sun Open 24 hours","image":"/static/listings/plumbers/riverwalk.jpg","city":"Arlington Heights"
  },
  {
    "category":"plumbers","featured":false,
    "name":"Courtesy Plumbing","slug":"courtesy-plumbing",
    "phone":"(877) 797-5430","website":"https://www.plungeit.com/",
    "short_description":"Ken Mounts founded courtesy Plumbing in 1972 with the sole goal of priding cost-effective and personable plumbing services to residents in the Bollingbrook and Romeoville area. Our goals have not changed over the years. However, our company, abilities, and 5-star reviews have increased considerably.",
    "services":["Drain cleaning","Sewer camera","Toilet repair"],
    "service_areas":["Naperville","Warrenville"],
    "hours":"Mon–Sun Open 24 hours","image":"/static/listings/plumbers/riverwalk.jpg","city":"Bollingbrook"
  },
  {
    "category":"plumbers","featured":false,
    "name":"Arco Plumbing","slug":"arco-plumbing",
    "phone":"(630) 960-5950","website":"https://www.arcoplumbing.com/",
    "short_description":"Your life will be much easier when you have a plumber you can call upon dependably. That is Arco Plumbing to our customers in Westmont, Illinois. Our plumbing company serves the suburbs and business districts. Founded in 1978 and a BBB A+ rated business since 1985, we’ve built a tradition of service to our customers. Whether it’s plumbing emergencies for commercial clients or over-the-phone assistance for residents—we’re always there when someone needs us.",
    "services":["Drain cleaning","Sewer camera","Toilet repair"],
    "service_areas":["Naperville","Warrenville"],
    "hours":"Mon–Sun Open 24 hours","image":"/static/listings/plumbers/riverwalk.jpg","city":"Westmont"
  },
  {
    "category":"electricians","featured":true,
    "name":"Wheaton Wire & Light","slug":"wheaton-wire-and-light",
    "phone":"(630) 555-2010","website":"https://example.com",
    "short_description":"Panel upgrades, EV chargers, and lighting installs with fast scheduling.",
    "services":["Panel upgrades","EV chargers","Lighting","Outlet repair"],
    "service_areas":["Wheaton","Naperville","Glen Ellyn"],
    "hours":"Mon–Fri 8–5","image":"/static/listings/electricians/wirelight.jpg","city":"Wheaton"
  },
  {
    "category":"electricians","featured":false,
    "name":"Naperville Electric Co.","slug":"naperville-electric-co",
    "phone":"(630) 555-2012","website":"https://example.com",
    "short_description":"Residential and commercial electrical services with 24/7 emergency support.",
    "services":["Rewiring","Code compliance","Ceiling fans","Troubleshooting"],
    "service_areas":["Naperville","Aurora","Plainfield"],
    "hours":"Mon–Sun 7–8","image":"/static/listings/electricians/naperville-electric.jpg","city":"Naperville"
  },
  {
    "category":"roofers","featured":true,
    "name":"DuPage Roofing Pros","slug":"dupage-roofing-pros",
    "phone":"(630) 555-3010","website":"https://example.com",
    "short_description":"Asphalt, cedar, and flat roof specialists. Free inspections.",
    "services":["Roof replacement","Repair","Storm damage"],
    "service_areas":["Naperville","Wheaton","Aurora"],
    "hours":"Mon–Fri 8–6","image":"/static/listings/roofers/dupage.jpg","city":"Naperville"
  },
  {
    "category":"roofers","featured":false,
    "name":"Wheaton Roof Masters","slug":"wheaton-roof-masters",
    "phone":"(630) 555-3012","website":"https://example.com",
    "short_description":"Family-owned roofing company with 20+ years of experience.",
    "services":["Shingle roofing","Metal roofing","Gutters","Siding"],
    "service_areas":["Wheaton","Winfield","Carol Stream"],
    "hours":"Mon–Sat 7–5","image":"/static/listings/roofers/wheaton-masters.jpg","city":"Wheaton"
  },
  {
    "category":"hvac","featured":true,
    "name":"Naperville Heating & Air","slug":"naperville-heating-and-air",
    "phone":"(630) 555-4008","website":"https://example.com",
    "short_description":"Heating, cooling, and air quality experts serving DuPage County.",
    "services":["Furnace repair","AC installation","Maintenance plans","Air purification"],
    "service_areas":["Naperville","Lisle","Woodridge"],
    "hours":"Mon–Sun 8–8","image":"/static/listings/hvac/naperville-heating.jpg","city":"Naperville"
  },
  {
    "category":"hvac","featured":false,
    "name":"River City HVAC","slug":"river-city-hvac",
    "phone":"(630) 555-4010","website":"https://example.com",
    "short_description":"AC repair, furnace tune-ups, and indoor air quality.",
    "services":["AC repair","Furnace","Tune-ups","IAQ"],
    "service_areas":["Naperville","Wheaton","Bolingbrook"],
    "hours":"Mon–Sun 7–7","image":"/static/listings/hvac/rivercity.jpg","city":"Naperville"
  },
  {
    "category":"landscapers","featured":true,
    "name":"Green Valley Landscaping","slug":"green-valley-landscaping",
    "phone":"(630) 555-5008","website":"https://example.com",
    "short_description":"Complete landscape design, installation, and maintenance services.",
    "services":["Landscape design","Hardscaping","Irrigation","Lawn care"],
    "service_areas":["Naperville","Wheaton","Aurora"],
    "hours":"Mon–Fri 7–6, Sat 8–4","image":"/static/listings/landscapers/green-valley.jpg","city":"Naperville"
  },
  {
    "category":"landscapers","featured":false,
    "name":"Prairie Path Landscaping","slug":"prairie-path-landscaping",
    "phone":"(630) 555-5010","website":"https://example.com",
    "short_description":"Mowing, cleanups, mulch, seasonal color.",
    "services":["Weekly mowing","Mulch","Cleanups","Planting"],
    "service_areas":["Naperville","Wheaton","Winfield"],
    "hours":"Mon–Sat 8–6","image":"/static/listings/landscapers/prairiepath.jpg","city":"Naperville"
  },
  {
    "category":"painters","featured":true,
    "name":"Riverwalk Painting Co.","slug":"riverwalk-painting-co",
    "phone":"(630) 555-6010","website":"https://example.com",
    "short_description":"Interior & exterior painting with clean, on-time crews.",
    "services":["Interior","Exterior","Cabinet refinishing"],
    "service_areas":["Naperville","Wheaton","Downers Grove"],
    "hours":"Mon–Fri 8–5","image":"/static/listings/painters/riverwalk.jpg","city":"Naperville"
  },
  {
    "category":"painters","featured":false,
    "name":"Wheaton Color Experts","slug":"wheaton-color-experts",
    "phone":"(630) 555-6012","website":"https://example.com",
    "short_description":"Premium painting services with color consultation included.",
    "services":["Residential","Commercial","Color consulting","Drywall repair"],
    "service_areas":["Wheaton","Glen Ellyn","Winfield"],
    "hours":"Mon–Fri 8–6","image":"/static/listings/painters/wheaton-color.jpg","city":"Wheaton"
  },
  {
    "category":"flooring","featured":true,
    "name":"Naperville Floors & More","slug":"naperville-floors-and-more",
    "phone":"(630) 555-7008","website":"https://example.com",
    "short_description":"Quality flooring installation with lifetime installation warranty.",
    "services":["Hardwood","Laminate","Tile","Carpet"],
    "service_areas":["Naperville","Lisle","Plainfield"],
    "hours":"Mon–Sat 9–6, Sun 11–4","image":"/static/listings/flooring/naperville-floors.jpg","city":"Naperville"
  },
  {
    "category":"flooring","featured":false,
    "name":"Fox Valley Flooring","slug":"fox-valley-flooring",
    "phone":"(630) 555-7010","website":"https://example.com",
    "short_description":"Hardwood, LVP, and carpet installation.",
    "services":["Hardwood","LVP","Carpet","Stairs"],
    "service_areas":["Naperville","Aurora","Wheaton"],
    "hours":"Mon–Sat 9–5","image":"/static/listings/flooring/foxvalley.jpg","city":"Aurora"
  },
  {
    "category":"remodeling","featured":true,
    "name":"Naper Remodel & Design","slug":"naper-remodel-and-design",
    "phone":"(630) 555-8010","website":"https://example.com",
    "short_description":"Kitchens, baths, and basements with transparent timelines.",
    "services":["Kitchens","Bathrooms","Basements"],
    "service_areas":["Naperville","Wheaton","Lisle"],
    "hours":"Mon–Fri 8–6","image":"/static/listings/remodeling/naperremodel.jpg","city":"Naperville"
  },
  {
    "category":"remodeling","featured":false,
    "name":"Wheaton Home Transformations","slug":"wheaton-home-transformations",
    "phone":"(630) 555-8012","website":"https://example.com",
    "short_description":"Full-service design-build firm specializing in whole-home renovations.",
    "services":["Whole home","Additions","Kitchens","Outdoor living"],
    "service_areas":["Wheaton","Glen Ellyn","Winfield"],
    "hours":"Mon–Fri 9–5","image":"/static/listings/remodeling/wheaton-transformations.jpg","city":"Wheaton"
  }
]
